{"total":117,
"data":[ 
{ "displayName" : "Santa María la Ribera | Farmacia San Pablo ", "name" : "0003", "url" : "/store/0003?lat=19.4468279&long=-99.1594532&q=06400", "phone" : "", "formattedDistance" : "0.6 Km", "line1" : "Av. Ribera de San Cosme", "line2" : "55", "town" : "Cuauhtémoc", "postalCode" : "06400", "latitude" : "19.441321", "longitude" : "-99.158942", "inOperation":"", "image" : "", "startOfService": "06:00", "endOfService": "01:00" }, 
{ "displayName" : "Cuauhtémoc | Farmacia San Pablo", "name" : "0112", "url" : "/store/0112?lat=19.4468279&long=-99.1594532&q=06400", "phone" : "", "formattedDistance" : "1.7 Km", "line1" : "Calzada Manuel Villalongin ", "line2" : "160", "town" : "Cuauhtémoc", "postalCode" : "06500", "latitude" : "19.434046", "longitude" : "-99.167907", "inOperation":"(Próxima apertura)", "image" : "", "startOfService": "06:00", "endOfService": "01:00" }, 
{ "displayName" : "Popotla | Farmacia San Pablo", "name" : "0085", "url" : "/store/0085?lat=19.4468279&long=-99.1594532&q=06400", "phone" : "", "formattedDistance" : "2.7 Km", "line1" : "Calzada Mexico Tacuba ", "line2" : "617", "town" : "Miguel Hidalgo", "postalCode" : "11400", "latitude" : "19.458", "longitude" : "-99.1822", "inOperation":"", "image" : "", "startOfService": "06:00", "endOfService": "01:00" }, 
{ "displayName" : "Nueva Santa María | Farmacias San Pablo", "name" : "0036", "url" : "/store/0036?lat=19.4468279&long=-99.1594532&q=06400", "phone" : "", "formattedDistance" : "2.8 Km", "line1" : "Av Cuitláhuac ", "line2" : " 3541", "town" : "Azcapotzalco", "postalCode" : "02800", "latitude" : "19.469905", "longitude" : "-99.170642", "inOperation":"", "image" : "", "startOfService": "06:00", "endOfService": "01:00" }, 
{ "displayName" : "Doctores | Farmacias San Pablo", "name" : "0025", "url" : "/store/0025?lat=19.4468279&long=-99.1594532&q=06400", "phone" : "", "formattedDistance" : "3 Km", "line1" : "Av. Cuauhtémoc ", "line2" : "114", "town" : "Cuauhtémoc", "postalCode" : "06720", "latitude" : "19.420245", "longitude" : "-99.15395", "inOperation":"", "image" : "", "startOfService": "06:00", "endOfService": "01:00" }, 
{ "displayName" : "Centro Histórico | Farmacia San Pablo", "name" : "0114", "url" : "/store/0114?lat=19.4468279&long=-99.1594532&q=06400", "phone" : "", "formattedDistance" : "3.2 Km", "line1" : "Calle Isabel la Católica ", "line2" : "92", "town" : "Cuauhtémoc", "postalCode" : "06080", "latitude" : "19.42758", "longitude" : "-99.137085", "inOperation":"", "image" : "", "startOfService": "06:00", "endOfService": "01:00" }, { "displayName" : "Centro | Farmacia San Pablo", "name" : "0001", "url" : "/store/0001?lat=19.4468279&long=-99.1594532&q=06400", "phone" : "", "formattedDistance" : "3.2 Km", "line1" : "5 de Febrero", "line2" : "26 y 28", "town" : "Cuauhtémoc", "postalCode" : "06060", "latitude" : "19.429743", "longitude" : "-99.134661", "inOperation":"", "image" : "", "startOfService": "06:00", "endOfService": "01:00" }, { "displayName" : "Sector Naval | Farmacia San Pablo", "name" : "0060", "url" : "/store/0060?lat=19.4468279&long=-99.1594532&q=06400", "phone" : "", "formattedDistance" : "3.3 Km", "line1" : "Camarones ", "line2" : "439", "town" : "Azcapotzalco", "postalCode" : "02080", "latitude" : "19.470504", "longitude" : "-99.178132", "inOperation":"", "image" : "", "startOfService": "06:00", "endOfService": "01:00" }, { "displayName" : "Polanco V Sección | Farmacia San Pablo", "name" : "0012", "url" : "/store/0012?lat=19.4468279&long=-99.1594532&q=06400", "phone" : "01 55 5354 9000", "formattedDistance" : "3.4 Km", "line1" : "Av. Isaac Newton", "line2" : "158", "town" : "Miguel Hidalgo", "postalCode" : "11570", "latitude" : "19.433727", "longitude" : "-99.188606", "inOperation":"", "image" : "", "startOfService": "06:00", "endOfService": "01:00" }, { "displayName" : "Roma Norte | Farmacia San Pablo", "name" : "0048", "url" : "/store/0048?lat=19.4468279&long=-99.1594532&q=06400", "phone" : "", "formattedDistance" : "3.4 Km", "line1" : "Chihuahua ", "line2" : "232", "town" : "Cuauhtémoc", "postalCode" : "06700", "latitude" : "19.416313", "longitude" : "-99.164966", "inOperation":"", "image" : "", "startOfService": "06:00", "endOfService": "01:00" } ]}